[
    {
        "name": "Empire State Building",
        "address": "350 5th Ave, New York, NY 10118, USA",
        "lat": 40.748817,
        "lng": -73.985428
    },
    {
        "name": "Golden Gate Bridge",
        "address": "San Francisco, CA, USA",
        "lat": 37.819929,
        "lng": -122.478255
    },
    {
        "name": "The White House",
        "address": "1600 Pennsylvania Ave NW, Washington, DC 20500, USA",
        "lat": 38.897676,
        "lng": -77.036530
    },
    {
        "name": "Grand Canyon National Park",
        "address": "Grand Canyon National Park, Arizona, USA",
        "lat": 36.106965,
        "lng": -112.112997
    },
    {
        "name": "Walt Disney World Resort",
        "address": "Orlando, FL 32830, USA",
        "lat": 28.385233,
        "lng": -81.563873
    },
    {
        "name": "Yellowstone National Park",
        "address": "Yellowstone National Park, WY 82190, USA",
        "lat": 44.428,
        "lng": -110.588
    },
    {
        "name": "Times Square",
        "address": "Manhattan, NY 10036, USA",
        "lat": 40.7580,
        "lng": -73.9855
    },
    {
        "name": "Mount Rushmore National Memorial",
        "address": "13000 SD-244, Keystone, SD 57751, USA",
        "lat": 43.8791,
        "lng": -103.4591
    },
    {
        "name": "Yosemite National Park",
        "address": "Yosemite National Park, CA 95389, USA",
        "lat": 37.8651,
        "lng": -119.5383
    },
    {
        "name": "Niagara Falls",
        "address": "Niagara Falls, NY 14303, USA",
        "lat": 43.0962,
        "lng": -79.0377
    },
    {
        "name": "Kennedy Space Center",
        "address": "Florida, USA",
        "lat": 28.5721,
        "lng": -80.6480
    },
    {
        "name": "Yellowstone Lake",
        "address": "Yellowstone National Park, WY 82190, USA",
        "lat": 44.4620,
        "lng": -110.3331
    },
    {
        "name": "Statue of Liberty National Monument",
        "address": "New York, NY 10004, USA",
        "lat": 40.6892,
        "lng": -74.0445
    },
    {
        "name": "Hoover Dam",
        "address": "Nevada, USA",
        "lat": 36.0158,
        "lng": -114.7372
    },
    {
        "name": "Hollywood Walk of Fame",
        "address": "Los Angeles, CA 90028, USA",
        "lat": 34.1019,
        "lng": -118.3267
    },
    {
        "name": "Mount St. Helens",
        "address": "Washington, USA",
        "lat": 46.1912,
        "lng": -122.1944
    },
    {
        "name": "Alcatraz Island",
        "address": "San Francisco, CA, USA",
        "lat": 37.8267,
        "lng": -122.4230
    },
    {
        "name": "Rocky Mountain National Park",
        "address": "Colorado, USA",
        "lat": 40.3428,
        "lng": -105.6836
    },
    {
        "name": "Central Park",
        "address": "New York, NY, USA",
        "lat": 40.785091,
        "lng": -73.968285
    },
    {
        "name": "Great Smoky Mountains National Park",
        "address": "Gatlinburg, TN 37738, USA",
        "lat": 35.6532,
        "lng": -83.5070
    }
]
